{
"type": "FeatureCollection",
"name": "flussdaten",
"crs": { "type": "name", "properties": { "name": "urn:ogc:def:crs:OGC:1.3:CRS84" } },
"features": [
{ "type": "Feature", "properties": { "id": "2009", "description": "<a target='_blank' href='http:\/\/www.hydrodaten.admin.ch\/de\/2009.html'>Stationsseite<\/a>", "name": "Rhône - Porte du Scex (2009)", "param": "Temperatur", "temp-class": 3, "w-typ": "Fluss" }, "geometry": { "type": "Point", "coordinates": [ 6.888617379044613, 46.349563733228116 ] } },
{ "type": "Feature", "properties": { "id": "2011", "description": "<a target='_blank' href='http:\/\/www.hydrodaten.admin.ch\/de\/2011.html'>Stationsseite<\/a>", "name": "Rhône - Sion (2011)", "param": "Temperatur", "temp-class": 3, "w-typ": "Fluss" }, "geometry": { "type": "Point", "coordinates": [ 7.357907877401607, 46.219089067413698 ] } },
{ "type": "Feature", "properties": { "id": "2016", "description": "<a target='_blank' href='http:\/\/www.hydrodaten.admin.ch\/de\/2016.html'>Stationsseite<\/a>", "name": "Aare - Brugg (2016)", "param": "Temperatur", "temp-class": 4, "w-typ": "Fluss" }, "geometry": { "type": "Point", "coordinates": [ 8.19487999591486, 47.48253725533678 ] } },
{ "type": "Feature", "properties": { "id": "2018", "description": "<a target='_blank' href='http:\/\/www.hydrodaten.admin.ch\/de\/2018.html'>Stationsseite<\/a>", "name": "Reuss - Mellingen (2018)", "param": "Temperatur", "temp-class": 3, "w-typ": "Fluss" }, "geometry": { "type": "Point", "coordinates": [ 8.271270744212829, 47.421030114370339 ] } },
{ "type": "Feature", "properties": { "id": "2019", "description": "<a target='_blank' href='http:\/\/www.hydrodaten.admin.ch\/de\/2019.html'>Stationsseite<\/a>", "name": "Aare - Brienzwiler (2019)", "param": "Temperatur", "temp-class": 1, "w-typ": "Fluss" }, "geometry": { "type": "Point", "coordinates": [ 8.09203112303342, 46.745742652668348 ] } },
{ "type": "Feature", "properties": { "id": "2029", "description": "<a target='_blank' href='http:\/\/www.hydrodaten.admin.ch\/de\/2029.html'>Stationsseite<\/a>", "name": "Aare - Brügg, Aegerten (2029)", "param": "Temperatur", "temp-class": 3, "w-typ": "Fluss" }, "geometry": { "type": "Point", "coordinates": [ 7.28339138382316, 47.122061926327312 ] } },
{ "type": "Feature", "properties": { "id": "2030", "description": "<a target='_blank' href='http:\/\/www.hydrodaten.admin.ch\/de\/2030.html'>Stationsseite<\/a>", "name": "Aare - Thun (2030)", "param": "Temperatur", "temp-class": 3, "w-typ": "Fluss" }, "geometry": { "type": "Point", "coordinates": [ 7.611825063559925, 46.764570092712887 ] } },
{ "type": "Feature", "properties": { "id": "2033", "description": "<a target='_blank' href='http:\/\/www.hydrodaten.admin.ch\/de\/2033.html'>Stationsseite<\/a>", "name": "Vorderrhein - Ilanz (2033)", "param": "Temperatur", "temp-class": 2, "w-typ": "Fluss" }, "geometry": { "type": "Point", "coordinates": [ 9.20635195937446, 46.775807205485052 ] } },
{ "type": "Feature", "properties": { "id": "2034", "description": "<a target='_blank' href='http:\/\/www.hydrodaten.admin.ch\/de\/2034.html'>Stationsseite<\/a>", "name": "Broye - Payerne, Caserne d 'aviation (2034)", "param": "Temperatur", "temp-class": 3, "w-typ": "Fluss" }, "geometry": { "type": "Point", "coordinates": [ 6.936070220294033, 46.835913415250936 ] } },
{ "type": "Feature", "properties": { "id": "2044", "description": "<a target='_blank' href='http:\/\/www.hydrodaten.admin.ch\/de\/2044.html'>Stationsseite<\/a>", "name": "Thur - Andelfingen (2044)", "param": "Temperatur", "temp-class": 3, "w-typ": "Fluss" }, "geometry": { "type": "Point", "coordinates": [ 8.681979647526864, 47.596523013042855 ] } },
{ "type": "Feature", "properties": { "id": "2056", "description": "<a target='_blank' href='http:\/\/www.hydrodaten.admin.ch\/de\/2056.html'>Stationsseite<\/a>", "name": "Reuss - Seedorf (2056)", "param": "Temperatur", "temp-class": 2, "w-typ": "Fluss" }, "geometry": { "type": "Point", "coordinates": [ 8.620567007367724, 46.883907047368346 ] } },
{ "type": "Feature", "properties": { "id": "2068", "description": "<a target='_blank' href='http:\/\/www.hydrodaten.admin.ch\/de\/2068.html'>Stationsseite<\/a>", "name": "Ticino - Riazzino (2068)", "param": "Temperatur", "temp-class": 3, "w-typ": "Fluss" }, "geometry": { "type": "Point", "coordinates": [ 8.910325558146084, 46.163385585411447 ] } },
{ "type": "Feature", "properties": { "id": "2070", "description": "<a target='_blank' href='http:\/\/www.hydrodaten.admin.ch\/de\/2070.html'>Stationsseite<\/a>", "name": "Emme - Emmenmatt, nur Hauptstation (2070)", "param": "Temperatur", "temp-class": 2, "w-typ": "Fluss" }, "geometry": { "type": "Point", "coordinates": [ 7.748796903455175, 46.954533187010902 ] } },
{ "type": "Feature", "properties": { "id": "2084", "description": "<a target='_blank' href='http:\/\/www.hydrodaten.admin.ch\/de\/2084.html'>Stationsseite<\/a>", "name": "Muota - Ingenbohl (2084)", "param": "Temperatur", "temp-class": 2, "w-typ": "Fluss" }, "geometry": { "type": "Point", "coordinates": [ 8.599166999524677, 47.000716417134313 ] } },
{ "type": "Feature", "properties": { "id": "2085", "description": "<a target='_blank' href='http:\/\/www.hydrodaten.admin.ch\/de\/2085.html'>Stationsseite<\/a>", "name": "Aare - Hagneck (2085)", "param": "Temperatur", "temp-class": 3, "w-typ": "Fluss" }, "geometry": { "type": "Point", "coordinates": [ 7.184345275271334, 47.055591568271474 ] } },
{ "type": "Feature", "properties": { "id": "2091", "description": "<a target='_blank' href='http:\/\/www.hydrodaten.admin.ch\/de\/2091.html'>Stationsseite<\/a>", "name": "Rhein - Rheinfelden, Messstation (2091)", "param": "Temperatur", "temp-class": 3, "w-typ": "Fluss" }, "geometry": { "type": "Point", "coordinates": [ 7.799896488595173, 47.560710721243296 ] } },
{ "type": "Feature", "properties": { "id": "2104", "description": "<a target='_blank' href='http:\/\/www.hydrodaten.admin.ch\/de\/2104.html'>Stationsseite<\/a>", "name": "Linth - Weesen, Biäsche (2104)", "param": "Temperatur", "temp-class": 2, "w-typ": "Fluss" }, "geometry": { "type": "Point", "coordinates": [ 9.088413184285601, 47.131564880521921 ] } },
{ "type": "Feature", "properties": { "id": "2106", "description": "<a target='_blank' href='http:\/\/www.hydrodaten.admin.ch\/de\/2106.html'>Stationsseite<\/a>", "name": "Birs - Münchenstein, Hofmatt (2106)", "param": "Temperatur", "temp-class": 3, "w-typ": "Fluss" }, "geometry": { "type": "Point", "coordinates": [ 7.618783182149646, 47.518322058795974 ] } },
{ "type": "Feature", "properties": { "id": "2109", "description": "<a target='_blank' href='http:\/\/www.hydrodaten.admin.ch\/de\/2109.html'>Stationsseite<\/a>", "name": "Lütschine - Gsteig (2109)", "param": "Temperatur", "temp-class": 2, "w-typ": "Fluss" }, "geometry": { "type": "Point", "coordinates": [ 7.871526313673106, 46.664211165424362 ] } },
{ "type": "Feature", "properties": { "id": "2112", "description": "<a target='_blank' href='http:\/\/www.hydrodaten.admin.ch\/de\/2112.html'>Stationsseite<\/a>", "name": "Sitter - Appenzell (2112)", "param": "Temperatur", "temp-class": 2, "w-typ": "Fluss" }, "geometry": { "type": "Point", "coordinates": [ 9.410629897893841, 47.331989728503672 ] } },
{ "type": "Feature", "properties": { "id": "2113", "description": "<a target='_blank' href='http:\/\/www.hydrodaten.admin.ch\/de\/2113.html'>Stationsseite<\/a>", "name": "Aare - Felsenau, K.W. Klingnau (U.W.) (2113)", "param": "Temperatur", "temp-class": 4, "w-typ": "Fluss" }, "geometry": { "type": "Point", "coordinates": [ 8.225055802700425, 47.594134441966716 ] } },
{ "type": "Feature", "properties": { "id": "2126", "description": "<a target='_blank' href='http:\/\/www.hydrodaten.admin.ch\/de\/2126.html'>Stationsseite<\/a>", "name": "Murg - Wängi (2126)", "param": "Temperatur", "temp-class": 3, "w-typ": "Fluss" }, "geometry": { "type": "Point", "coordinates": [ 8.952993021003978, 47.496330220340639 ] } },
{ "type": "Feature", "properties": { "id": "2130", "description": "<a target='_blank' href='http:\/\/www.hydrodaten.admin.ch\/de\/2130.html'>Stationsseite<\/a>", "name": "Rhein (Oberwasser) - Laufenburg (2130)", "param": "Temperatur", "temp-class": 3, "w-typ": "Fluss" }, "geometry": { "type": "Point", "coordinates": [ 8.049773486643021, 47.55579643001775 ] } },
{ "type": "Feature", "properties": { "id": "2135", "description": "<a target='_blank' href='http:\/\/www.hydrodaten.admin.ch\/de\/2135.html'>Stationsseite<\/a>", "name": "Aare - Bern, Schönau (2135)", "param": "Temperatur", "temp-class": 3, "w-typ": "Fluss" }, "geometry": { "type": "Point", "coordinates": [ 7.447956260550522, 46.933092098366593 ] } },
{ "type": "Feature", "properties": { "id": "2139", "description": "<a target='_blank' href='http:\/\/www.hydrodaten.admin.ch\/de\/2139.html'>Stationsseite<\/a>", "name": "Rheintaler Binnenkanal - St. Margrethen (2139)", "param": "Temperatur", "temp-class": 2, "w-typ": "Fluss" }, "geometry": { "type": "Point", "coordinates": [ 9.655792276683876, 47.449818080023029 ] } },
{ "type": "Feature", "properties": { "id": "2143", "description": "<a target='_blank' href='http:\/\/www.hydrodaten.admin.ch\/de\/2143.html'>Stationsseite<\/a>", "name": "Rhein - Rekingen (2143)", "param": "Temperatur", "temp-class": 3, "w-typ": "Fluss" }, "geometry": { "type": "Point", "coordinates": [ 8.329829010536759, 47.570351809370571 ] } },
{ "type": "Feature", "properties": { "id": "2150", "description": "<a target='_blank' href='http:\/\/www.hydrodaten.admin.ch\/de\/2150.html'>Stationsseite<\/a>", "name": "Landquart - Felsenbach (2150)", "param": "Temperatur", "temp-class": 1, "w-typ": "Fluss" }, "geometry": { "type": "Point", "coordinates": [ 9.612105536419243, 46.97464907962911 ] } },
{ "type": "Feature", "properties": { "id": "2152", "description": "<a target='_blank' href='http:\/\/www.hydrodaten.admin.ch\/de\/2152.html'>Stationsseite<\/a>", "name": "Reuss - Luzern, Geissmattbrücke (2152)", "param": "Temperatur", "temp-class": 2, "w-typ": "Fluss" }, "geometry": { "type": "Point", "coordinates": [ 8.298478972448263, 47.054009538595331 ] } },
{ "type": "Feature", "properties": { "id": "2159", "description": "<a target='_blank' href='http:\/\/www.hydrodaten.admin.ch\/de\/2159.html'>Stationsseite<\/a>", "name": "Gürbe - Belp, Mülimatt (2159)", "param": "Temperatur", "temp-class": 2, "w-typ": "Fluss" }, "geometry": { "type": "Point", "coordinates": [ 7.50174091387492, 46.885220861294421 ] } },
{ "type": "Feature", "properties": { "id": "2161", "description": "<a target='_blank' href='http:\/\/www.hydrodaten.admin.ch\/de\/2161.html'>Stationsseite<\/a>", "name": "Massa - Blatten bei Naters (2161)", "param": "Temperatur", "temp-class": 1, "w-typ": "Fluss" }, "geometry": { "type": "Point", "coordinates": [ 8.006712077028267, 46.385557245242211 ] } },
{ "type": "Feature", "properties": { "id": "2167", "description": "<a target='_blank' href='http:\/\/www.hydrodaten.admin.ch\/de\/2167.html'>Stationsseite<\/a>", "name": "Tresa - Ponte Tresa, Rocchetta (2167)", "param": "Temperatur", "temp-class": 4, "w-typ": "Fluss" }, "geometry": { "type": "Point", "coordinates": [ 8.852402105763591, 45.971995362109809 ] } },
{ "type": "Feature", "properties": { "id": "2170", "description": "<a target='_blank' href='http:\/\/www.hydrodaten.admin.ch\/de\/2170.html'>Stationsseite<\/a>", "name": "Arve - Genève, Bout du Monde (2170)", "param": "Temperatur", "temp-class": 2, "w-typ": "Fluss" }, "geometry": { "type": "Point", "coordinates": [ 6.159368101428859, 46.180283526238703 ] } },
{ "type": "Feature", "properties": { "id": "2174", "description": "<a target='_blank' href='http:\/\/www.hydrodaten.admin.ch\/de\/2174.html'>Stationsseite<\/a>", "name": "Rhône - Chancy, Aux Ripes (2174)", "param": "Temperatur", "temp-class": 3, "w-typ": "Fluss" }, "geometry": { "type": "Point", "coordinates": [ 5.970743426405686, 46.152973977663713 ] } },
{ "type": "Feature", "properties": { "id": "2176", "description": "<a target='_blank' href='http:\/\/www.hydrodaten.admin.ch\/de\/2176.html'>Stationsseite<\/a>", "name": "Sihl - Zürich, Sihlhölzli (2176)", "param": "Temperatur", "temp-class": 3, "w-typ": "Fluss" }, "geometry": { "type": "Point", "coordinates": [ 8.526166368608338, 47.367731693434692 ] } },
{ "type": "Feature", "properties": { "id": "2179", "description": "<a target='_blank' href='http:\/\/www.hydrodaten.admin.ch\/de\/2179.html'>Stationsseite<\/a>", "name": "Sense - Thörishaus, Sensematt (2179)", "param": "Temperatur", "temp-class": 2, "w-typ": "Fluss" }, "geometry": { "type": "Point", "coordinates": [ 7.351380408692994, 46.88826213234794 ] } },
{ "type": "Feature", "properties": { "id": "2181", "description": "<a target='_blank' href='http:\/\/www.hydrodaten.admin.ch\/de\/2181.html'>Stationsseite<\/a>", "name": "Thur - Halden (2181)", "param": "Temperatur", "temp-class": 2, "w-typ": "Fluss" }, "geometry": { "type": "Point", "coordinates": [ 9.21155050247906, 47.505792688885116 ] } },
{ "type": "Feature", "properties": { "id": "2210", "description": "<a target='_blank' href='http:\/\/www.hydrodaten.admin.ch\/de\/2210.html'>Stationsseite<\/a>", "name": "Doubs - Ocourt (2210)", "param": "Temperatur", "temp-class": 3, "w-typ": "Fluss" }, "geometry": { "type": "Point", "coordinates": [ 7.075070476377531, 47.350414972096267 ] } },
{ "type": "Feature", "properties": { "id": "2232", "description": "<a target='_blank' href='http:\/\/www.hydrodaten.admin.ch\/de\/2232.html'>Stationsseite<\/a>", "name": "Allenbach - Adelboden (2232)", "param": "Temperatur", "temp-class": 2, "w-typ": "Fluss" }, "geometry": { "type": "Point", "coordinates": [ 7.552073503153075, 46.485962807549932 ] } },
{ "type": "Feature", "properties": { "id": "2243", "description": "<a target='_blank' href='http:\/\/www.hydrodaten.admin.ch\/de\/2243.html'>Stationsseite<\/a>", "name": "Limmat - Baden, Limmatpromenade (2243)", "param": "Temperatur", "temp-class": 3, "w-typ": "Fluss" }, "geometry": { "type": "Point", "coordinates": [ 8.309405220850531, 47.475706272357165 ] } },
{ "type": "Feature", "properties": { "id": "2256", "description": "<a target='_blank' href='http:\/\/www.hydrodaten.admin.ch\/de\/2256.html'>Stationsseite<\/a>", "name": "Rosegbach - Pontresina (2256)", "param": "Temperatur", "temp-class": 1, "w-typ": "Fluss" }, "geometry": { "type": "Point", "coordinates": [ 9.898153744010477, 46.489892316923772 ] } },
{ "type": "Feature", "properties": { "id": "2265", "description": "<a target='_blank' href='http:\/\/www.hydrodaten.admin.ch\/de\/2265.html'>Stationsseite<\/a>", "name": "Inn - Tarasp (2265)", "param": "Temperatur", "temp-class": 1, "w-typ": "Fluss" }, "geometry": { "type": "Point", "coordinates": [ 10.278598927383779, 46.789041738628121 ] } },
{ "type": "Feature", "properties": { "id": "2269", "description": "<a target='_blank' href='http:\/\/www.hydrodaten.admin.ch\/de\/2269.html'>Stationsseite<\/a>", "name": "Lonza - Blatten (2269)", "param": "Temperatur", "temp-class": 2, "w-typ": "Fluss" }, "geometry": { "type": "Point", "coordinates": [ 7.817542657659734, 46.418910843130149 ] } },
{ "type": "Feature", "properties": { "id": "2276", "description": "<a target='_blank' href='http:\/\/www.hydrodaten.admin.ch\/de\/2276.html'>Stationsseite<\/a>", "name": "Grosstalbach - Isenthal (2276)", "param": "Temperatur", "temp-class": 2, "w-typ": "Fluss" }, "geometry": { "type": "Point", "coordinates": [ 8.560952174051577, 46.910056347777108 ] } },
{ "type": "Feature", "properties": { "id": "2282", "description": "<a target='_blank' href='http:\/\/www.hydrodaten.admin.ch\/de\/2282.html'>Stationsseite<\/a>", "name": "Sperbelgraben - Wasen, Kurzeneialp (2282)", "param": "Temperatur", "temp-class": 2, "w-typ": "Fluss" }, "geometry": { "type": "Point", "coordinates": [ 7.842727233824797, 47.015768412133639 ] } },
{ "type": "Feature", "properties": { "id": "2288", "description": "<a target='_blank' href='http:\/\/www.hydrodaten.admin.ch\/de\/2288.html'>Stationsseite<\/a>", "name": "Rhein - Neuhausen, Flurlingerbrücke (2288)", "param": "Temperatur", "temp-class": 3, "w-typ": "Fluss" }, "geometry": { "type": "Point", "coordinates": [ 8.625855495400874, 47.682333558026357 ] } },
{ "type": "Feature", "properties": { "id": "2290", "description": "<a target='_blank' href='http:\/\/www.hydrodaten.admin.ch\/de\/2290.html'>Stationsseite<\/a>", "name": "Areuse - St-Sulpice (2290)", "param": "Temperatur", "temp-class": 2, "w-typ": "Fluss" }, "geometry": { "type": "Point", "coordinates": [ 6.558894671744023, 46.91063296887183 ] } },
{ "type": "Feature", "properties": { "id": "2307", "description": "<a target='_blank' href='http:\/\/www.hydrodaten.admin.ch\/de\/2307.html'>Stationsseite<\/a>", "name": "Suze - Sonceboz (2307)", "param": "Temperatur", "temp-class": 3, "w-typ": "Fluss" }, "geometry": { "type": "Point", "coordinates": [ 7.172189874710995, 47.196783866538524 ] } },
{ "type": "Feature", "properties": { "id": "2308", "description": "<a target='_blank' href='http:\/\/www.hydrodaten.admin.ch\/de\/2308.html'>Stationsseite<\/a>", "name": "Goldach - Goldach, Bleiche, nur Hauptstation (2308)", "param": "Temperatur", "temp-class": 2, "w-typ": "Fluss" }, "geometry": { "type": "Point", "coordinates": [ 9.471473808797585, 47.48730429245515 ] } },
{ "type": "Feature", "properties": { "id": "2327", "description": "<a target='_blank' href='http:\/\/www.hydrodaten.admin.ch\/de\/2327.html'>Stationsseite<\/a>", "name": "Dischmabach - Davos, Kriegsmatte (2327)", "param": "Temperatur", "temp-class": 1, "w-typ": "Fluss" }, "geometry": { "type": "Point", "coordinates": [ 9.877262200561074, 46.775459779136547 ] } },
{ "type": "Feature", "properties": { "id": "2343", "description": "<a target='_blank' href='http:\/\/www.hydrodaten.admin.ch\/de\/2343.html'>Stationsseite<\/a>", "name": "Langeten - Huttwil, Häberenbad (2343)", "param": "Temperatur", "temp-class": 3, "w-typ": "Fluss" }, "geometry": { "type": "Point", "coordinates": [ 7.828178808021379, 47.122545229301835 ] } },
{ "type": "Feature", "properties": { "id": "2347", "description": "<a target='_blank' href='http:\/\/www.hydrodaten.admin.ch\/de\/2347.html'>Stationsseite<\/a>", "name": "Riale di Roggiasca - Roveredo, Bacino di compenso (2347)", "param": "Temperatur", "temp-class": 1, "w-typ": "Fluss" }, "geometry": { "type": "Point", "coordinates": [ 9.168900058025319, 46.201647876743209 ] } },
{ "type": "Feature", "properties": { "id": "2351", "description": "<a target='_blank' href='http:\/\/www.hydrodaten.admin.ch\/de\/2351.html'>Stationsseite<\/a>", "name": "Vispa - Visp (2351)", "param": "Temperatur", "temp-class": 2, "w-typ": "Fluss" }, "geometry": { "type": "Point", "coordinates": [ 7.88017965985765, 46.283658226117993 ] } },
{ "type": "Feature", "properties": { "id": "2356", "description": "<a target='_blank' href='http:\/\/www.hydrodaten.admin.ch\/de\/2356.html'>Stationsseite<\/a>", "name": "Riale di Calneggia - Cavergno, Pontit (2356)", "param": "Temperatur", "temp-class": 2, "w-typ": "Fluss" }, "geometry": { "type": "Point", "coordinates": [ 8.542896930580399, 46.369638641651164 ] } },
{ "type": "Feature", "properties": { "id": "2366", "description": "<a target='_blank' href='http:\/\/www.hydrodaten.admin.ch\/de\/2366.html'>Stationsseite<\/a>", "name": "Poschiavino - La Rösa (2366)", "param": "Temperatur", "temp-class": 1, "w-typ": "Fluss" }, "geometry": { "type": "Point", "coordinates": [ 10.067185963033427, 46.398977536510429 ] } },
{ "type": "Feature", "properties": { "id": "2369", "description": "<a target='_blank' href='http:\/\/www.hydrodaten.admin.ch\/de\/2369.html'>Stationsseite<\/a>", "name": "Mentue - Yvonand, La Mauguettaz (2369)", "param": "Temperatur", "temp-class": 3, "w-typ": "Fluss" }, "geometry": { "type": "Point", "coordinates": [ 6.724237812966357, 46.776805845644297 ] } },
{ "type": "Feature", "properties": { "id": "2372", "description": "<a target='_blank' href='http:\/\/www.hydrodaten.admin.ch\/de\/2372.html'>Stationsseite<\/a>", "name": "Linth - Mollis, Linthbrücke (2372)", "param": "Temperatur", "temp-class": 2, "w-typ": "Fluss" }, "geometry": { "type": "Point", "coordinates": [ 9.071992498572754, 47.101075252265765 ] } },
{ "type": "Feature", "properties": { "id": "2374", "description": "<a target='_blank' href='http:\/\/www.hydrodaten.admin.ch\/de\/2374.html'>Stationsseite<\/a>", "name": "Necker - Mogelsberg, Aachsäge (2374)", "param": "Temperatur", "temp-class": 2, "w-typ": "Fluss" }, "geometry": { "type": "Point", "coordinates": [ 9.121433885445605, 47.364189130916898 ] } },
{ "type": "Feature", "properties": { "id": "2386", "description": "<a target='_blank' href='http:\/\/www.hydrodaten.admin.ch\/de\/2386.html'>Stationsseite<\/a>", "name": "Murg - Frauenfeld (2386)", "param": "Temperatur", "temp-class": 3, "w-typ": "Fluss" }, "geometry": { "type": "Point", "coordinates": [ 8.894376900302532, 47.568505172540938 ] } },
{ "type": "Feature", "properties": { "id": "2392", "description": "<a target='_blank' href='http:\/\/www.hydrodaten.admin.ch\/de\/2392.html'>Stationsseite<\/a>", "name": "Rhein (Oberwasser) - Rheinau (2392)", "param": "Temperatur", "temp-class": 3, "w-typ": "Fluss" }, "geometry": { "type": "Point", "coordinates": [ 8.601930699225765, 47.639087913114942 ] } },
{ "type": "Feature", "properties": { "id": "2410", "description": "<a target='_blank' href='http:\/\/www.hydrodaten.admin.ch\/de\/2410.html'>Stationsseite<\/a>", "name": "Liechtensteiner Binnenkanal - Ruggell (2410)", "param": "Temperatur", "temp-class": 3, "w-typ": "Fluss" }, "geometry": { "type": "Point", "coordinates": [ 9.522438343252402, 47.243376897457857 ] } },
{ "type": "Feature", "properties": { "id": "2414", "description": "<a target='_blank' href='http:\/\/www.hydrodaten.admin.ch\/de\/2414.html'>Stationsseite<\/a>", "name": "Rietholzbach - Mosnang, Rietholz (2414)", "param": "Temperatur", "temp-class": 2, "w-typ": "Fluss" }, "geometry": { "type": "Point", "coordinates": [ 9.01228319581239, 47.376073966263704 ] } },
{ "type": "Feature", "properties": { "id": "2415", "description": "<a target='_blank' href='http:\/\/www.hydrodaten.admin.ch\/de\/2415.html'>Stationsseite<\/a>", "name": "Glatt - Rheinsfelden (2415)", "param": "Temperatur", "temp-class": 4, "w-typ": "Fluss" }, "geometry": { "type": "Point", "coordinates": [ 8.475820195772451, 47.573545145064408 ] } },
{ "type": "Feature", "properties": { "id": "2432", "description": "<a target='_blank' href='http:\/\/www.hydrodaten.admin.ch\/de\/2432.html'>Stationsseite<\/a>", "name": "Venoge - Ecublens, Les Bois (2432)", "param": "Temperatur", "temp-class": 3, "w-typ": "Fluss" }, "geometry": { "type": "Point", "coordinates": [ 6.552750920170607, 46.535271536553417 ] } },
{ "type": "Feature", "properties": { "id": "2433", "description": "<a target='_blank' href='http:\/\/www.hydrodaten.admin.ch\/de\/2433.html'>Stationsseite<\/a>", "name": "Aubonne - Allaman, Le Coulet (2433)", "param": "Temperatur", "temp-class": 2, "w-typ": "Fluss" }, "geometry": { "type": "Point", "coordinates": [ 6.406365017314229, 46.473308859080682 ] } },
{ "type": "Feature", "properties": { "id": "2434", "description": "<a target='_blank' href='http:\/\/www.hydrodaten.admin.ch\/de\/2434.html'>Stationsseite<\/a>", "name": "Dünnern - Olten, Hammermühle (2434)", "param": "Temperatur", "temp-class": 3, "w-typ": "Fluss" }, "geometry": { "type": "Point", "coordinates": [ 7.892969260679672, 47.350279854713882 ] } },
{ "type": "Feature", "properties": { "id": "2457", "description": "<a target='_blank' href='http:\/\/www.hydrodaten.admin.ch\/de\/2457.html'>Stationsseite<\/a>", "name": "Aare - Ringgenberg, Goldswil (2457)", "param": "Temperatur", "temp-class": 2, "w-typ": "Fluss" }, "geometry": { "type": "Point", "coordinates": [ 7.879608708092412, 46.693955796549318 ] } },
{ "type": "Feature", "properties": { "id": "2462", "description": "<a target='_blank' href='http:\/\/www.hydrodaten.admin.ch\/de\/2462.html'>Stationsseite<\/a>", "name": "Inn - S-Chanf (2462)", "param": "Temperatur", "temp-class": 1, "w-typ": "Fluss" }, "geometry": { "type": "Point", "coordinates": [ 9.99518029080577, 46.615734489020276 ] } },
{ "type": "Feature", "properties": { "id": "2467", "description": "<a target='_blank' href='http:\/\/www.hydrodaten.admin.ch\/de\/2467.html'>Stationsseite<\/a>", "name": "Saane - Gümmenen (2467)", "param": "Temperatur", "temp-class": 3, "w-typ": "Fluss" }, "geometry": { "type": "Point", "coordinates": [ 7.242929683347511, 46.944077537050276 ] } },
{ "type": "Feature", "properties": { "id": "2473", "description": "<a target='_blank' href='http:\/\/www.hydrodaten.admin.ch\/de\/2473.html'>Stationsseite<\/a>", "name": "Rhein - Diepoldsau, Rietbrücke (2473)", "param": "Temperatur", "temp-class": 2, "w-typ": "Fluss" }, "geometry": { "type": "Point", "coordinates": [ 9.640905187164975, 47.38307002181395 ] } },
{ "type": "Feature", "properties": { "id": "2481", "description": "<a target='_blank' href='http:\/\/www.hydrodaten.admin.ch\/de\/2481.html'>Stationsseite<\/a>", "name": "Engelberger Aa - Buochs, Flugplatz (2481)", "param": "Temperatur", "temp-class": 2, "w-typ": "Fluss" }, "geometry": { "type": "Point", "coordinates": [ 8.405275358302623, 46.972828156580341 ] } },
{ "type": "Feature", "properties": { "id": "2485", "description": "<a target='_blank' href='http:\/\/www.hydrodaten.admin.ch\/de\/2485.html'>Stationsseite<\/a>", "name": "Allaine - Boncourt, Frontière (2485)", "param": "Temperatur", "temp-class": 3, "w-typ": "Fluss" }, "geometry": { "type": "Point", "coordinates": [ 7.011659695481423, 47.500760880739257 ] } },
{ "type": "Feature", "properties": { "id": "2493", "description": "<a target='_blank' href='http:\/\/www.hydrodaten.admin.ch\/de\/2493.html'>Stationsseite<\/a>", "name": "Promenthouse - Gland, Route Suisse (2493)", "param": "Temperatur", "temp-class": 3, "w-typ": "Fluss" }, "geometry": { "type": "Point", "coordinates": [ 6.269269349724383, 46.406032419081008 ] } },
{ "type": "Feature", "properties": { "id": "2499", "description": "<a target='_blank' href='http:\/\/www.hydrodaten.admin.ch\/de\/2499.html'>Stationsseite<\/a>", "name": "Schlichenden Brünnen - Muotathal (2499)", "param": "Temperatur", "temp-class": 2, "w-typ": "Fluss" }, "geometry": { "type": "Point", "coordinates": [ 8.784284165333046, 46.973125824661366 ] } },
{ "type": "Feature", "properties": { "id": "2500", "description": "<a target='_blank' href='http:\/\/www.hydrodaten.admin.ch\/de\/2500.html'>Stationsseite<\/a>", "name": "Worble - Ittigen (2500)", "param": "Temperatur", "temp-class": 3, "w-typ": "Fluss" }, "geometry": { "type": "Point", "coordinates": [ 7.478122311610127, 46.973159395532541 ] } },
{ "type": "Feature", "properties": { "id": "2604", "description": "<a target='_blank' href='http:\/\/www.hydrodaten.admin.ch\/de\/2604.html'>Stationsseite<\/a>", "name": "Biber - Biberbrugg (2604)", "param": "Temperatur", "temp-class": 2, "w-typ": "Fluss" }, "geometry": { "type": "Point", "coordinates": [ 8.72087271022575, 47.153344400849022 ] } },
{ "type": "Feature", "properties": { "id": "2606", "description": "<a target='_blank' href='http:\/\/www.hydrodaten.admin.ch\/de\/2606.html'>Stationsseite<\/a>", "name": "Rhône - Genève, Halle de l 'île (2606)", "param": "Temperatur", "temp-class": 3, "w-typ": "Fluss" }, "geometry": { "type": "Point", "coordinates": [ 6.141561365774866, 46.204641464270082 ] } },
{ "type": "Feature", "properties": { "id": "2608", "description": "<a target='_blank' href='http:\/\/www.hydrodaten.admin.ch\/de\/2608.html'>Stationsseite<\/a>", "name": "Sellenbodenbach - Neuenkirch (2608)", "param": "Temperatur", "temp-class": 3, "w-typ": "Fluss" }, "geometry": { "type": "Point", "coordinates": [ 8.209825197243575, 47.113019009752044 ] } },
{ "type": "Feature", "properties": { "id": "2609", "description": "<a target='_blank' href='http:\/\/www.hydrodaten.admin.ch\/de\/2609.html'>Stationsseite<\/a>", "name": "Alp - Einsiedeln (2609)", "param": "Temperatur", "temp-class": 2, "w-typ": "Fluss" }, "geometry": { "type": "Point", "coordinates": [ 8.739273459043094, 47.150798814311251 ] } },
{ "type": "Feature", "properties": { "id": "2612", "description": "<a target='_blank' href='http:\/\/www.hydrodaten.admin.ch\/de\/2612.html'>Stationsseite<\/a>", "name": "Riale di Pincascia - Lavertezzo (2612)", "param": "Temperatur", "temp-class": 1, "w-typ": "Fluss" }, "geometry": { "type": "Point", "coordinates": [ 8.840125593605473, 46.258298012712288 ] } },
{ "type": "Feature", "properties": { "id": "2613", "description": "<a target='_blank' href='http:\/\/www.hydrodaten.admin.ch\/de\/2613.html'>Stationsseite<\/a>", "name": "Rhein - Weil, Palmrainbrücke (2613)", "param": "Temperatur", "temp-class": 3, "w-typ": "Fluss" }, "geometry": { "type": "Point", "coordinates": [ 7.594729896894836, 47.60136887715479 ] } },
{ "type": "Feature", "properties": { "id": "2617", "description": "<a target='_blank' href='http:\/\/www.hydrodaten.admin.ch\/de\/2617.html'>Stationsseite<\/a>", "name": "Rom - Müstair (2617)", "param": "Temperatur", "temp-class": 1, "w-typ": "Fluss" }, "geometry": { "type": "Point", "coordinates": [ 10.453156880830402, 46.629638470430059 ] } },
{ "type": "Feature", "properties": { "id": "2623", "description": "<a target='_blank' href='http:\/\/www.hydrodaten.admin.ch\/de\/2623.html'>Stationsseite<\/a>", "name": "Rhone - Oberwald (2623)", "param": "Temperatur", "temp-class": 1, "w-typ": "Fluss" }, "geometry": { "type": "Point", "coordinates": [ 8.349412121955957, 46.534369894553649 ] } },
{ "type": "Feature", "properties": { "id": "2634", "description": "<a target='_blank' href='http:\/\/www.hydrodaten.admin.ch\/de\/2634.html'>Stationsseite<\/a>", "name": "Kleine Emme - Emmen (2634)", "param": "Temperatur", "temp-class": 2, "w-typ": "Fluss" }, "geometry": { "type": "Point", "coordinates": [ 8.27728452280248, 47.070628019158661 ] } },
{ "type": "Feature", "properties": { "id": "2635", "description": "<a target='_blank' href='http:\/\/www.hydrodaten.admin.ch\/de\/2635.html'>Stationsseite<\/a>", "name": "Grossbach - Einsiedeln, Gross (2635)", "param": "Temperatur", "temp-class": 2, "w-typ": "Fluss" }, "geometry": { "type": "Point", "coordinates": [ 8.765471472115651, 47.10646347187263 ] } }
]
}
