{
"type": "FeatureCollection",
"name": "test",
"crs": { "type": "name", "properties": { "name": "urn:ogc:def:crs:OGC:1.3:CRS84" } },
"features": [
{ "type": "Feature", "properties": { "id": "2009", "name": "Rhône - Porte du Scex (2009)", "temp-class": 1 }, "geometry": { "type": "Point", "coordinates": [ 6.888617379044613, 46.349563733228116 ] } },
{ "type": "Feature", "properties": { "id": "2011", "name": "Rhône - Sion (2011)", "temp-class": 1 }, "geometry": { "type": "Point", "coordinates": [ 7.357907877401607, 46.219089067413698 ] } },
{ "type": "Feature", "properties": { "id": "2016", "name": "Aare - Brugg (2016)", "temp-class": 2 }, "geometry": { "type": "Point", "coordinates": [ 8.19487999591486, 47.48253725533678 ] } },
{ "type": "Feature", "properties": { "id": "2018", "name": "Reuss - Mellingen (2018)", "temp-class": 2 }, "geometry": { "type": "Point", "coordinates": [ 8.271270744212829, 47.421030114370339 ] } },
{ "type": "Feature", "properties": { "id": "2019", "name": "Aare - Brienzwiler (2019)", "temp-class": 1 }, "geometry": { "type": "Point", "coordinates": [ 8.09203112303342, 46.745742652668348 ] } },
{ "type": "Feature", "properties": { "id": "2029", "name": "Aare - Brügg, Aegerten (2029)", "temp-class": 2 }, "geometry": { "type": "Point", "coordinates": [ 7.28339138382316, 47.122061926327312 ] } },
{ "type": "Feature", "properties": { "id": "2030", "name": "Aare - Thun (2030)", "temp-class": 2 }, "geometry": { "type": "Point", "coordinates": [ 7.611825063559925, 46.76457009271288 ] } },
{ "type": "Feature", "properties": { "id": "2033", "name": "Vorderrhein - Ilanz (2033)", "temp-class": 1 }, "geometry": { "type": "Point", "coordinates": [ 9.20635195937446, 46.775807205485052 ] } },
{ "type": "Feature", "properties": { "id": "2034", "name": "Broye - Payerne, Caserne d 'aviation (2034)", "temp-class": 1 }, "geometry": { "type": "Point", "coordinates": [ 6.936070220294033, 46.835913415250936 ] } },
{ "type": "Feature", "properties": { "id": "2044", "name": "Thur - Andelfingen (2044)", "temp-class": 2 }, "geometry": { "type": "Point", "coordinates": [ 8.681979647526864, 47.596523013042855 ] } },
{ "type": "Feature", "properties": { "id": "2056", "name": "Reuss - Seedorf (2056)", "temp-class": 1 }, "geometry": { "type": "Point", "coordinates": [ 8.620567007367724, 46.883907047368346 ] } },
{ "type": "Feature", "properties": { "id": "2068", "name": "Ticino - Riazzino (2068)", "temp-class": 1 }, "geometry": { "type": "Point", "coordinates": [ 8.910325558146084, 46.163385585411454 ] } },
{ "type": "Feature", "properties": { "id": "2070", "name": "Emme - Emmenmatt, nur Hauptstation (2070)", "temp-class": 1 }, "geometry": { "type": "Point", "coordinates": [ 7.748796903455175, 46.954533187010902 ] } },
{ "type": "Feature", "properties": { "id": "2084", "name": "Muota - Ingenbohl (2084)", "temp-class": 1 }, "geometry": { "type": "Point", "coordinates": [ 8.599166999524677, 47.000716417134313 ] } },
{ "type": "Feature", "properties": { "id": "2085", "name": "Aare - Hagneck (2085)", "temp-class": 2 }, "geometry": { "type": "Point", "coordinates": [ 7.184345275271334, 47.055591568271474 ] } },
{ "type": "Feature", "properties": { "id": "2091", "name": "Rhein - Rheinfelden, Messstation (2091)", "temp-class": 3 }, "geometry": { "type": "Point", "coordinates": [ 7.799896488595173, 47.560710721243296 ] } },
{ "type": "Feature", "properties": { "id": "2104", "name": "Linth - Weesen, Biäsche (2104)", "temp-class": 2 }, "geometry": { "type": "Point", "coordinates": [ 9.088413184285601, 47.131564880521914 ] } },
{ "type": "Feature", "properties": { "id": "2106", "name": "Birs - Münchenstein, Hofmatt (2106)", "temp-class": 2 }, "geometry": { "type": "Point", "coordinates": [ 7.618783182149646, 47.518322058795974 ] } },
{ "type": "Feature", "properties": { "id": "2109", "name": "Lütschine - Gsteig (2109)", "temp-class": 1 }, "geometry": { "type": "Point", "coordinates": [ 7.871526313673106, 46.664211165424362 ] } },
{ "type": "Feature", "properties": { "id": "2112", "name": "Sitter - Appenzell (2112)", "temp-class": 1 }, "geometry": { "type": "Point", "coordinates": [ 9.410629897893841, 47.331989728503672 ] } },
{ "type": "Feature", "properties": { "id": "2113", "name": "Aare - Felsenau, K.W. Klingnau (U.W.) (2113)", "temp-class": 3 }, "geometry": { "type": "Point", "coordinates": [ 8.225055802700425, 47.594134441966723 ] } },
{ "type": "Feature", "properties": { "id": "2126", "name": "Murg - Wängi (2126)", "temp-class": 2 }, "geometry": { "type": "Point", "coordinates": [ 8.952993021003978, 47.496330220340639 ] } },
{ "type": "Feature", "properties": { "id": "2130", "name": "Rhein (Oberwasser) - Laufenburg (2130)", "temp-class": 2 }, "geometry": { "type": "Point", "coordinates": [ 8.049773486643021, 47.55579643001775 ] } },
{ "type": "Feature", "properties": { "id": "2135", "name": "Aare - Bern, Schönau (2135)", "temp-class": 2 }, "geometry": { "type": "Point", "coordinates": [ 7.447956260550522, 46.933092098366593 ] } },
{ "type": "Feature", "properties": { "id": "2139", "name": "Rheintaler Binnenkanal - St. Margrethen (2139)", "temp-class": 2 }, "geometry": { "type": "Point", "coordinates": [ 9.655792276683876, 47.449818080023029 ] } },
{ "type": "Feature", "properties": { "id": "2143", "name": "Rhein - Rekingen (2143)", "temp-class": 2 }, "geometry": { "type": "Point", "coordinates": [ 8.329829010536759, 47.570351809370571 ] } },
{ "type": "Feature", "properties": { "id": "2150", "name": "Landquart - Felsenbach (2150)", "temp-class": 1 }, "geometry": { "type": "Point", "coordinates": [ 9.612105536419243, 46.97464907962911 ] } },
{ "type": "Feature", "properties": { "id": "2152", "name": "Reuss - Luzern, Geissmattbrücke (2152)", "temp-class": 2 }, "geometry": { "type": "Point", "coordinates": [ 8.298478972448263, 47.054009538595331 ] } },
{ "type": "Feature", "properties": { "id": "2159", "name": "Gürbe - Belp, Mülimatt (2159)", "temp-class": 1 }, "geometry": { "type": "Point", "coordinates": [ 7.50174091387492, 46.885220861294421 ] } },
{ "type": "Feature", "properties": { "id": "2161", "name": "Massa - Blatten bei Naters (2161)", "temp-class": 1 }, "geometry": { "type": "Point", "coordinates": [ 8.006712077028267, 46.385557245242211 ] } },
{ "type": "Feature", "properties": { "id": "2167", "name": "Tresa - Ponte Tresa, Rocchetta (2167)", "temp-class": 3 }, "geometry": { "type": "Point", "coordinates": [ 8.852402105763591, 45.971995362109809 ] } },
{ "type": "Feature", "properties": { "id": "2170", "name": "Arve - Genève, Bout du Monde (2170)", "temp-class": 1 }, "geometry": { "type": "Point", "coordinates": [ 6.159368101428859, 46.180283526238703 ] } },
{ "type": "Feature", "properties": { "id": "2174", "name": "Rhône - Chancy, Aux Ripes (2174)", "temp-class": 2 }, "geometry": { "type": "Point", "coordinates": [ 5.970743426405686, 46.152973977663713 ] } },
{ "type": "Feature", "properties": { "id": "2176", "name": "Sihl - Zürich, Sihlhölzli (2176)", "temp-class": 1 }, "geometry": { "type": "Point", "coordinates": [ 8.526166368608338, 47.367731693434713 ] } },
{ "type": "Feature", "properties": { "id": "2179", "name": "Sense - Thörishaus, Sensematt (2179)", "temp-class": 1 }, "geometry": { "type": "Point", "coordinates": [ 7.351380408692994, 46.888262132347933 ] } },
{ "type": "Feature", "properties": { "id": "2181", "name": "Thur - Halden (2181)", "temp-class": 1 }, "geometry": { "type": "Point", "coordinates": [ 9.21155050247906, 47.505792688885116 ] } },
{ "type": "Feature", "properties": { "id": "2210", "name": "Doubs - Ocourt (2210)", "temp-class": 2 }, "geometry": { "type": "Point", "coordinates": [ 7.075070476377531, 47.35041497209626 ] } },
{ "type": "Feature", "properties": { "id": "2232", "name": "Allenbach - Adelboden (2232)", "temp-class": 1 }, "geometry": { "type": "Point", "coordinates": [ 7.552073503153075, 46.485962807549924 ] } },
{ "type": "Feature", "properties": { "id": "2243", "name": "Limmat - Baden, Limmatpromenade (2243)", "temp-class": 2 }, "geometry": { "type": "Point", "coordinates": [ 8.309405220850531, 47.475706272357172 ] } },
{ "type": "Feature", "properties": { "id": "2256", "name": "Rosegbach - Pontresina (2256)", "temp-class": 1 }, "geometry": { "type": "Point", "coordinates": [ 9.898153744010477, 46.489892316923772 ] } },
{ "type": "Feature", "properties": { "id": "2265", "name": "Inn - Tarasp (2265)", "temp-class": 1 }, "geometry": { "type": "Point", "coordinates": [ 10.278598927383779, 46.789041738628121 ] } },
{ "type": "Feature", "properties": { "id": "2269", "name": "Lonza - Blatten (2269)", "temp-class": 1 }, "geometry": { "type": "Point", "coordinates": [ 7.817542657659734, 46.418910843130149 ] } },
{ "type": "Feature", "properties": { "id": "2276", "name": "Grosstalbach - Isenthal (2276)", "temp-class": 1 }, "geometry": { "type": "Point", "coordinates": [ 8.560952174051577, 46.910056347777108 ] } },
{ "type": "Feature", "properties": { "id": "2282", "name": "Sperbelgraben - Wasen, Kurzeneialp (2282)", "temp-class": 1 }, "geometry": { "type": "Point", "coordinates": [ 7.842727233824797, 47.015768412133646 ] } },
{ "type": "Feature", "properties": { "id": "2288", "name": "Rhein - Neuhausen, Flurlingerbrücke (2288)", "temp-class": 2 }, "geometry": { "type": "Point", "coordinates": [ 8.625855495400874, 47.682333558026357 ] } },
{ "type": "Feature", "properties": { "id": "2290", "name": "Areuse - St-Sulpice (2290)", "temp-class": 2 }, "geometry": { "type": "Point", "coordinates": [ 6.558894671744023, 46.91063296887183 ] } },
{ "type": "Feature", "properties": { "id": "2307", "name": "Suze - Sonceboz (2307)", "temp-class": 2 }, "geometry": { "type": "Point", "coordinates": [ 7.172189874710995, 47.196783866538524 ] } },
{ "type": "Feature", "properties": { "id": "2308", "name": "Goldach - Goldach, Bleiche, nur Hauptstation (2308)", "temp-class": 1 }, "geometry": { "type": "Point", "coordinates": [ 9.471473808797585, 47.48730429245515 ] } },
{ "type": "Feature", "properties": { "id": "2327", "name": "Dischmabach - Davos, Kriegsmatte (2327)", "temp-class": 1 }, "geometry": { "type": "Point", "coordinates": [ 9.877262200561074, 46.775459779136547 ] } },
{ "type": "Feature", "properties": { "id": "2343", "name": "Langeten - Huttwil, Häberenbad (2343)", "temp-class": 1 }, "geometry": { "type": "Point", "coordinates": [ 7.828178808021379, 47.122545229301835 ] } },
{ "type": "Feature", "properties": { "id": "2347", "name": "Riale di Roggiasca - Roveredo, Bacino di compenso (2347)", "temp-class": 1 }, "geometry": { "type": "Point", "coordinates": [ 9.168900058025319, 46.201647876743216 ] } },
{ "type": "Feature", "properties": { "id": "2351", "name": "Vispa - Visp (2351)", "temp-class": 1 }, "geometry": { "type": "Point", "coordinates": [ 7.88017965985765, 46.283658226117986 ] } },
{ "type": "Feature", "properties": { "id": "2356", "name": "Riale di Calneggia - Cavergno, Pontit (2356)", "temp-class": 2 }, "geometry": { "type": "Point", "coordinates": [ 8.542896930580399, 46.369638641651164 ] } },
{ "type": "Feature", "properties": { "id": "2366", "name": "Poschiavino - La Rösa (2366)", "temp-class": 1 }, "geometry": { "type": "Point", "coordinates": [ 10.067185963033427, 46.398977536510429 ] } },
{ "type": "Feature", "properties": { "id": "2369", "name": "Mentue - Yvonand, La Mauguettaz (2369)", "temp-class": 1 }, "geometry": { "type": "Point", "coordinates": [ 6.724237812966357, 46.77680584564429 ] } },
{ "type": "Feature", "properties": { "id": "2372", "name": "Linth - Mollis, Linthbrücke (2372)", "temp-class": 1 }, "geometry": { "type": "Point", "coordinates": [ 9.071992498572754, 47.101075252265765 ] } },
{ "type": "Feature", "properties": { "id": "2374", "name": "Necker - Mogelsberg, Aachsäge (2374)", "temp-class": 1 }, "geometry": { "type": "Point", "coordinates": [ 9.121433885445605, 47.364189130916898 ] } },
{ "type": "Feature", "properties": { "id": "2386", "name": "Murg - Frauenfeld (2386)", "temp-class": 2 }, "geometry": { "type": "Point", "coordinates": [ 8.894376900302532, 47.568505172540938 ] } },
{ "type": "Feature", "properties": { "id": "2392", "name": "Rhein (Oberwasser) - Rheinau (2392)", "temp-class": 2 }, "geometry": { "type": "Point", "coordinates": [ 8.601930699225765, 47.639087913114942 ] } },
{ "type": "Feature", "properties": { "id": "2410", "name": "Liechtensteiner Binnenkanal - Ruggell (2410)", "temp-class": 2 }, "geometry": { "type": "Point", "coordinates": [ 9.522438343252402, 47.243376897457857 ] } },
{ "type": "Feature", "properties": { "id": "2414", "name": "Rietholzbach - Mosnang, Rietholz (2414)", "temp-class": 1 }, "geometry": { "type": "Point", "coordinates": [ 9.01228319581239, 47.376073966263718 ] } },
{ "type": "Feature", "properties": { "id": "2415", "name": "Glatt - Rheinsfelden (2415)", "temp-class": 2 }, "geometry": { "type": "Point", "coordinates": [ 8.475820195772451, 47.573545145064408 ] } },
{ "type": "Feature", "properties": { "id": "2432", "name": "Venoge - Ecublens, Les Bois (2432)", "temp-class": 2 }, "geometry": { "type": "Point", "coordinates": [ 6.552750920170607, 46.535271536553417 ] } },
{ "type": "Feature", "properties": { "id": "2433", "name": "Aubonne - Allaman, Le Coulet (2433)", "temp-class": 2 }, "geometry": { "type": "Point", "coordinates": [ 6.406365017314229, 46.473308859080682 ] } },
{ "type": "Feature", "properties": { "id": "2434", "name": "Dünnern - Olten, Hammermühle (2434)", "temp-class": 2 }, "geometry": { "type": "Point", "coordinates": [ 7.892969260679672, 47.350279854713889 ] } },
{ "type": "Feature", "properties": { "id": "2457", "name": "Aare - Ringgenberg, Goldswil (2457)", "temp-class": 2 }, "geometry": { "type": "Point", "coordinates": [ 7.879608708092412, 46.693955796549325 ] } },
{ "type": "Feature", "properties": { "id": "2462", "name": "Inn - S-Chanf (2462)", "temp-class": 1 }, "geometry": { "type": "Point", "coordinates": [ 9.99518029080577, 46.615734489020276 ] } },
{ "type": "Feature", "properties": { "id": "2467", "name": "Saane - Gümmenen (2467)", "temp-class": 2 }, "geometry": { "type": "Point", "coordinates": [ 7.242929683347511, 46.944077537050276 ] } },
{ "type": "Feature", "properties": { "id": "2473", "name": "Rhein - Diepoldsau, Rietbrücke (2473)", "temp-class": 1 }, "geometry": { "type": "Point", "coordinates": [ 9.640905187164975, 47.38307002181395 ] } },
{ "type": "Feature", "properties": { "id": "2481", "name": "Engelberger Aa - Buochs, Flugplatz (2481)", "temp-class": 1 }, "geometry": { "type": "Point", "coordinates": [ 8.405275358302623, 46.972828156580334 ] } },
{ "type": "Feature", "properties": { "id": "2485", "name": "Allaine - Boncourt, Frontière (2485)", "temp-class": 2 }, "geometry": { "type": "Point", "coordinates": [ 7.011659695481423, 47.500760880739257 ] } },
{ "type": "Feature", "properties": { "id": "2493", "name": "Promenthouse - Gland, Route Suisse (2493)", "temp-class": 2 }, "geometry": { "type": "Point", "coordinates": [ 6.269269349724383, 46.406032419081008 ] } },
{ "type": "Feature", "properties": { "id": "2499", "name": "Schlichenden Brünnen - Muotathal (2499)", "temp-class": 2 }, "geometry": { "type": "Point", "coordinates": [ 8.784284165333046, 46.973125824661366 ] } },
{ "type": "Feature", "properties": { "id": "2500", "name": "Worble - Ittigen (2500)", "temp-class": 2 }, "geometry": { "type": "Point", "coordinates": [ 7.478122311610127, 46.973159395532541 ] } },
{ "type": "Feature", "properties": { "id": "2604", "name": "Biber - Biberbrugg (2604)", "temp-class": 1 }, "geometry": { "type": "Point", "coordinates": [ 8.72087271022575, 47.153344400849022 ] } },
{ "type": "Feature", "properties": { "id": "2606", "name": "Rhône - Genève, Halle de l 'île (2606)", "temp-class": 2 }, "geometry": { "type": "Point", "coordinates": [ 6.141561365774866, 46.204641464270082 ] } },
{ "type": "Feature", "properties": { "id": "2608", "name": "Sellenbodenbach - Neuenkirch (2608)", "temp-class": 1 }, "geometry": { "type": "Point", "coordinates": [ 8.209825197243575, 47.113019009752044 ] } },
{ "type": "Feature", "properties": { "id": "2609", "name": "Alp - Einsiedeln (2609)", "temp-class": 1 }, "geometry": { "type": "Point", "coordinates": [ 8.739273459043094, 47.150798814311251 ] } },
{ "type": "Feature", "properties": { "id": "2612", "name": "Riale di Pincascia - Lavertezzo (2612)", "temp-class": 1 }, "geometry": { "type": "Point", "coordinates": [ 8.840125593605473, 46.258298012712288 ] } },
{ "type": "Feature", "properties": { "id": "2613", "name": "Rhein - Weil, Palmrainbrücke (2613)", "temp-class": 3 }, "geometry": { "type": "Point", "coordinates": [ 7.594729896894836, 47.60136887715479 ] } },
{ "type": "Feature", "properties": { "id": "2617", "name": "Rom - Müstair (2617)", "temp-class": 1 }, "geometry": { "type": "Point", "coordinates": [ 10.453156880830402, 46.629638470430059 ] } },
{ "type": "Feature", "properties": { "id": "2623", "name": "Rhone - Oberwald (2623)", "temp-class": 1 }, "geometry": { "type": "Point", "coordinates": [ 8.349412121955957, 46.534369894553649 ] } },
{ "type": "Feature", "properties": { "id": "2634", "name": "Kleine Emme - Emmen (2634)", "temp-class": 1 }, "geometry": { "type": "Point", "coordinates": [ 8.27728452280248, 47.070628019158661 ] } },
{ "type": "Feature", "properties": { "id": "2635", "name": "Grossbach - Einsiedeln, Gross (2635)", "temp-class": 1 }, "geometry": { "type": "Point", "coordinates": [ 8.765471472115651, 47.106463471872623 ] } }
]
}
